<?xml version="1.0" encoding="UTF-8"?>
<kml xmlns="http://www.opengis.net/kml/2.2">
  <Document>
    <name>綠島加水站</name>
    <description><![CDATA[歡迎至各加水站免費加水，減少飲用購買瓶裝水。<br>謝謝你為綠島的垃圾減量盡一份心力！<br>（至各加水站加水請注意禮貌喔～）]]></description>
    <Style id="icon-1703-DB4436-nodesc-normal">
      <IconStyle>
        <color>ff3644db</color>
        <scale>1</scale>
        <Icon>
          <href>http://www.gstatic.com/mapspro/images/stock/503-wht-blank_maps.png</href>
        </Icon>
      </IconStyle>
      <LabelStyle>
        <scale>0</scale>
      </LabelStyle>
      <BalloonStyle>
        <text><![CDATA[<h3>$[name]</h3>]]></text>
      </BalloonStyle>
    </Style>
    <Style id="icon-1703-DB4436-nodesc-highlight">
      <IconStyle>
        <color>ff3644db</color>
        <scale>1</scale>
        <Icon>
          <href>http://www.gstatic.com/mapspro/images/stock/503-wht-blank_maps.png</href>
        </Icon>
      </IconStyle>
      <LabelStyle>
        <scale>1</scale>
      </LabelStyle>
      <BalloonStyle>
        <text><![CDATA[<h3>$[name]</h3>]]></text>
      </BalloonStyle>
    </Style>
    <StyleMap id="icon-1703-DB4436-nodesc">
      <Pair>
        <key>normal</key>
        <styleUrl>#icon-1703-DB4436-nodesc-normal</styleUrl>
      </Pair>
      <Pair>
        <key>highlight</key>
        <styleUrl>#icon-1703-DB4436-nodesc-highlight</styleUrl>
      </Pair>
    </StyleMap>
    <Style id="icon-1899-DB4436-nodesc-normal">
      <IconStyle>
        <color>ff3644db</color>
        <scale>1</scale>
        <Icon>
          <href>http://www.gstatic.com/mapspro/images/stock/503-wht-blank_maps.png</href>
        </Icon>
        <hotSpot x="32" xunits="pixels" y="64" yunits="insetPixels"/>
      </IconStyle>
      <LabelStyle>
        <scale>0</scale>
      </LabelStyle>
      <BalloonStyle>
        <text><![CDATA[<h3>$[name]</h3>]]></text>
      </BalloonStyle>
    </Style>
    <Style id="icon-1899-DB4436-nodesc-highlight">
      <IconStyle>
        <color>ff3644db</color>
        <scale>1</scale>
        <Icon>
          <href>http://www.gstatic.com/mapspro/images/stock/503-wht-blank_maps.png</href>
        </Icon>
        <hotSpot x="32" xunits="pixels" y="64" yunits="insetPixels"/>
      </IconStyle>
      <LabelStyle>
        <scale>1</scale>
      </LabelStyle>
      <BalloonStyle>
        <text><![CDATA[<h3>$[name]</h3>]]></text>
      </BalloonStyle>
    </Style>
    <StyleMap id="icon-1899-DB4436-nodesc">
      <Pair>
        <key>normal</key>
        <styleUrl>#icon-1899-DB4436-nodesc-normal</styleUrl>
      </Pair>
      <Pair>
        <key>highlight</key>
        <styleUrl>#icon-1899-DB4436-nodesc-highlight</styleUrl>
      </Pair>
    </StyleMap>
    <Folder>
      <name>加水點</name>
      <Placemark>
        <name><![CDATA[晴B&B]]></name>
        <styleUrl>#icon-1703-DB4436-nodesc</styleUrl>
        <Point>
          <coordinates>
            121.4908451,22.6756238,0
          </coordinates>
        </Point>
      </Placemark>
      <Placemark>
        <name>70腳落背包客棧</name>
        <styleUrl>#icon-1899-DB4436-nodesc</styleUrl>
        <Point>
          <coordinates>
            121.4915988,22.6751382,0
          </coordinates>
        </Point>
      </Placemark>
      <Placemark>
        <name>綠島機場</name>
        <styleUrl>#icon-1899-DB4436-nodesc</styleUrl>
        <Point>
          <coordinates>
            121.4668634,22.6723616,0
          </coordinates>
        </Point>
      </Placemark>
      <Placemark>
        <name>綠島緩島旅宿。Slow Island Hostel</name>
        <styleUrl>#icon-1899-DB4436-nodesc</styleUrl>
        <Point>
          <coordinates>
            121.47043,22.666052,0
          </coordinates>
        </Point>
      </Placemark>
      <Placemark>
        <name>BLUE SAFARI DIVING CENTER 藍莎潛水中心</name>
        <styleUrl>#icon-1899-DB4436-nodesc</styleUrl>
        <Point>
          <coordinates>
            121.4917571,22.674899,0
          </coordinates>
        </Point>
      </Placemark>
      <Placemark>
        <name>崴禾潛旅</name>
        <styleUrl>#icon-1899-DB4436-nodesc</styleUrl>
        <Point>
          <coordinates>
            121.481338,22.674984,0
          </coordinates>
        </Point>
      </Placemark>
      <Placemark>
        <name>海子・ocean rover 綠島潛水旅宿</name>
        <styleUrl>#icon-1899-DB4436-nodesc</styleUrl>
        <Point>
          <coordinates>
            121.4879523,22.6768174,0
          </coordinates>
        </Point>
      </Placemark>
      <Placemark>
        <name><![CDATA[綠島星月屋渡假山莊Star Moon B&B]]></name>
        <styleUrl>#icon-1899-DB4436-nodesc</styleUrl>
        <Point>
          <coordinates>
            121.4691055,22.6727065,0
          </coordinates>
        </Point>
      </Placemark>
      <Placemark>
        <name>東部海岸國家風景區綠島遊客中心</name>
        <styleUrl>#icon-1899-DB4436-nodesc</styleUrl>
        <Point>
          <coordinates>
            121.4684291,22.6719581,0
          </coordinates>
        </Point>
      </Placemark>
      <Placemark>
        <name>綠島9號背包客棧</name>
        <styleUrl>#icon-1899-DB4436-nodesc</styleUrl>
        <Point>
          <coordinates>
            121.474987,22.660423,0
          </coordinates>
        </Point>
      </Placemark>
      <Placemark>
        <name>溫泉出張所</name>
        <styleUrl>#icon-1899-DB4436-nodesc</styleUrl>
        <Point>
          <coordinates>
            121.4984988,22.646445,0
          </coordinates>
        </Point>
      </Placemark>
      <Placemark>
        <name>綠島-夏卡爾民宿Greenisland Shiacare Hostel</name>
        <styleUrl>#icon-1899-DB4436-nodesc</styleUrl>
        <Point>
          <coordinates>
            121.4979067,22.6458091,0
          </coordinates>
        </Point>
      </Placemark>
      <Placemark>
        <name>綠海城堡民宿</name>
        <styleUrl>#icon-1899-DB4436-nodesc</styleUrl>
        <Point>
          <coordinates>
            121.4727551,22.6731734,0
          </coordinates>
        </Point>
      </Placemark>
      <Placemark>
        <name>綠島紅魔鬼民宿</name>
        <styleUrl>#icon-1899-DB4436-nodesc</styleUrl>
        <Point>
          <coordinates>
            121.471708,22.6743675,0
          </coordinates>
        </Point>
      </Placemark>
      <Placemark>
        <name>藍色海灣</name>
        <styleUrl>#icon-1899-DB4436-nodesc</styleUrl>
        <Point>
          <coordinates>
            121.4785146,22.6743431,0
          </coordinates>
        </Point>
      </Placemark>
      <Placemark>
        <name>白色恐怖綠島紀念園區</name>
        <styleUrl>#icon-1899-DB4436-nodesc</styleUrl>
        <Point>
          <coordinates>
            121.4962614,22.6751765,0
          </coordinates>
        </Point>
      </Placemark>
      <Placemark>
        <name>綠島田的家民宿</name>
        <styleUrl>#icon-1899-DB4436-nodesc</styleUrl>
        <Point>
          <coordinates>
            121.4912184,22.675128,0
          </coordinates>
        </Point>
      </Placemark>
      <Placemark>
        <name>蠟像館</name>
        <styleUrl>#icon-1899-DB4436-nodesc</styleUrl>
        <Point>
          <coordinates>
            121.4990595,22.6749913,0
          </coordinates>
        </Point>
      </Placemark>
      <Placemark>
        <name>梅花鹿專賣店</name>
        <styleUrl>#icon-1899-DB4436-nodesc</styleUrl>
        <Point>
          <coordinates>
            121.4676915,22.6717495,0
          </coordinates>
        </Point>
      </Placemark>
      <Placemark>
        <name>熱浪潛水</name>
        <styleUrl>#icon-1899-DB4436-nodesc</styleUrl>
        <Point>
          <coordinates>
            121.4676674,22.6716757,0
          </coordinates>
        </Point>
      </Placemark>
      <Placemark>
        <name>頤線天</name>
        <styleUrl>#icon-1899-DB4436-nodesc</styleUrl>
        <Point>
          <coordinates>
            121.4815606,22.6748436,0
          </coordinates>
        </Point>
      </Placemark>
      <Placemark>
        <name>海猴子潛水旅宿</name>
        <styleUrl>#icon-1899-DB4436-nodesc</styleUrl>
        <Point>
          <coordinates>
            121.4917275,22.6750825,0
          </coordinates>
        </Point>
      </Placemark>
      <Placemark>
        <name>綠島的窩</name>
        <styleUrl>#icon-1899-DB4436-nodesc</styleUrl>
        <Point>
          <coordinates>
            121.4884644,22.6768228,0
          </coordinates>
        </Point>
      </Placemark>
      <Placemark>
        <name>綠堤咖啡館</name>
        <styleUrl>#icon-1899-DB4436-nodesc</styleUrl>
        <Point>
          <coordinates>
            121.4721677,22.6639435,0
          </coordinates>
        </Point>
      </Placemark>
      <Placemark>
        <name>綠島哈狗店 MR.HOT DOG 餐廳酒吧</name>
        <styleUrl>#icon-1899-DB4436-nodesc</styleUrl>
        <Point>
          <coordinates>
            121.470218,22.666023,0
          </coordinates>
        </Point>
      </Placemark>
      <Placemark>
        <name>綠島好樂早餐吧</name>
        <styleUrl>#icon-1899-DB4436-nodesc</styleUrl>
        <Point>
          <coordinates>
            121.4710594,22.6740922,0
          </coordinates>
        </Point>
      </Placemark>
    </Folder>
  </Document>
</kml>
