{"type":"FeatureCollection","features":[{"type":"Feature","geometry":{"type":"Point","coordinates":[121.4908451,22.6756238,0]},"properties":{"name":"晴B&B"}},{"type":"Feature","geometry":{"type":"Point","coordinates":[121.4915988,22.6751382,0]},"properties":{"name":"70腳落背包客棧"}},{"type":"Feature","geometry":{"type":"Point","coordinates":[121.4668634,22.6723616,0]},"properties":{"name":"綠島機場"}},{"type":"Feature","geometry":{"type":"Point","coordinates":[121.47043,22.666052,0]},"properties":{"name":"綠島緩島旅宿。Slow Island Hostel"}},{"type":"Feature","geometry":{"type":"Point","coordinates":[121.4917571,22.674899,0]},"properties":{"name":"BLUE SAFARI DIVING CENTER 藍莎潛水中心"}},{"type":"Feature","geometry":{"type":"Point","coordinates":[121.481338,22.674984,0]},"properties":{"name":"崴禾潛旅"}},{"type":"Feature","geometry":{"type":"Point","coordinates":[121.4879523,22.6768174,0]},"properties":{"name":"海子・ocean rover 綠島潛水旅宿"}},{"type":"Feature","geometry":{"type":"Point","coordinates":[121.4691055,22.6727065,0]},"properties":{"name":"綠島星月屋渡假山莊Star Moon B&B"}},{"type":"Feature","geometry":{"type":"Point","coordinates":[121.4684291,22.6719581,0]},"properties":{"name":"東部海岸國家風景區綠島遊客中心"}},{"type":"Feature","geometry":{"type":"Point","coordinates":[121.474987,22.660423,0]},"properties":{"name":"綠島9號背包客棧"}},{"type":"Feature","geometry":{"type":"Point","coordinates":[121.4984988,22.646445,0]},"properties":{"name":"溫泉出張所"}},{"type":"Feature","geometry":{"type":"Point","coordinates":[121.4979067,22.6458091,0]},"properties":{"name":"綠島-夏卡爾民宿Greenisland Shiacare Hostel"}},{"type":"Feature","geometry":{"type":"Point","coordinates":[121.4727551,22.6731734,0]},"properties":{"name":"綠海城堡民宿"}},{"type":"Feature","geometry":{"type":"Point","coordinates":[121.471708,22.6743675,0]},"properties":{"name":"綠島紅魔鬼民宿"}},{"type":"Feature","geometry":{"type":"Point","coordinates":[121.4785146,22.6743431,0]},"properties":{"name":"藍色海灣"}},{"type":"Feature","geometry":{"type":"Point","coordinates":[121.4962614,22.6751765,0]},"properties":{"name":"白色恐怖綠島紀念園區"}},{"type":"Feature","geometry":{"type":"Point","coordinates":[121.4912184,22.675128,0]},"properties":{"name":"綠島田的家民宿"}},{"type":"Feature","geometry":{"type":"Point","coordinates":[121.4990595,22.6749913,0]},"properties":{"name":"蠟像館"}},{"type":"Feature","geometry":{"type":"Point","coordinates":[121.4676915,22.6717495,0]},"properties":{"name":"梅花鹿專賣店"}},{"type":"Feature","geometry":{"type":"Point","coordinates":[121.4676674,22.6716757,0]},"properties":{"name":"熱浪潛水"}},{"type":"Feature","geometry":{"type":"Point","coordinates":[121.4815606,22.6748436,0]},"properties":{"name":"頤線天"}},{"type":"Feature","geometry":{"type":"Point","coordinates":[121.4917275,22.6750825,0]},"properties":{"name":"海猴子潛水旅宿"}},{"type":"Feature","geometry":{"type":"Point","coordinates":[121.4884644,22.6768228,0]},"properties":{"name":"綠島的窩"}},{"type":"Feature","geometry":{"type":"Point","coordinates":[121.4721677,22.6639435,0]},"properties":{"name":"綠堤咖啡館"}},{"type":"Feature","geometry":{"type":"Point","coordinates":[121.470218,22.666023,0]},"properties":{"name":"綠島哈狗店 MR.HOT DOG 餐廳酒吧"}},{"type":"Feature","geometry":{"type":"Point","coordinates":[121.4710594,22.6740922,0]},"properties":{"name":"綠島好樂早餐吧"}}]}