{"type":"FeatureCollection","features":[{"type":"Feature","geometry":{"type":"Point","coordinates":[120.6955558,24.18311,0]},"properties":{"name":"小豬哼哼","description":"地址: <br>電話: <br>類型: 餐廳<br>備註: 熟食-米糕、魷魚羹、小菜等等，內用提供瓷碗及環保餐具。<br><br>粉專/網站: ","地址":null,"電話":null,"類型":"餐廳","備註":"熟食-米糕、魷魚羹、小菜等等，內用提供瓷碗及環保餐具。\n","粉專/網站":null}},{"type":"Feature","geometry":{"type":"Point","coordinates":[120.3521504,22.6257413,0]},"properties":{"name":"世聖精品鮮果社","description":"地址: <br>電話: 07 740 8299<br><br>類型: 食材<br>備註: 食物—水果, <br>食物—蔬菜<br><br>粉專/網站: https://www.facebook.com/search/top/?q=%E4%B8%96%E8%81%96%20%E7%B2%BE%E5%93%81%E9%AE%AE%E6%9E%9C%E7%A4%BE%20-%20%E5%8F%B0%E7%81%A3%E6%B0%B4%E6%9E%9C%2F%E6%97%A5%E6%9C%AC%E6%B0%B4%E6%9E%9C%2F%E9%80%B2%E5%8F%A3%E6%B0%B4%E6%9E%9C%2F%E6%B0%B4%E6%9E%9C%E5%88%87%E7%9B%A4%2F%E6%B0%B4%E6%9E%9C%E7%A6%AE%E7%9B%92%2F%E5%AE%AE%E5%BB%9F%2F%E5%AE%85%E9%85%8D%2F%E6%AB%BB%E6%A1%83%2F%E8%8D%89%E8%8E%93%2F%E5%A5%87%E7%95%B0%E6%9E%9C<br>","地址":null,"電話":"07 740 8299\n","類型":"食材","備註":"食物—水果, \n食物—蔬菜\n","粉專/網站":"https://www.facebook.com/search/top/?q=%E4%B8%96%E8%81%96%20%E7%B2%BE%E5%93%81%E9%AE%AE%E6%9E%9C%E7%A4%BE%20-%20%E5%8F%B0%E7%81%A3%E6%B0%B4%E6%9E%9C%2F%E6%97%A5%E6%9C%AC%E6%B0%B4%E6%9E%9C%2F%E9%80%B2%E5%8F%A3%E6%B0%B4%E6%9E%9C%2F%E6%B0%B4%E6%9E%9C%E5%88%87%E7%9B%A4%2F%E6%B0%B4%E6%9E%9C%E7%A6%AE%E7%9B%92%2F%E5%AE%AE%E5%BB%9F%2F%E5%AE%85%E9%85%8D%2F%E6%AB%BB%E6%A1%83%2F%E8%8D%89%E8%8E%93%2F%E5%A5%87%E7%95%B0%E6%9E%9C\n"}},{"type":"Feature","geometry":{"type":"Point","coordinates":[120.9933092,24.8000316,0]},"properties":{"name":"新村小商號","description":"地址: <br>電話: <br>類型: 食物—水果, 食物—蔬菜, 食物—五穀雜糧, 食物—米, 用品—清潔用品, 用品—生活食器, 其他(請寫在備註欄中)<br><br>備註: 裸賣雜貨店，全自備容器，有賣貝果<br><br>粉專/網站: https://m.facebook.com/新村小商號-141026013155950/<br>","地址":null,"電話":null,"類型":"食物—水果, 食物—蔬菜, 食物—五穀雜糧, 食物—米, 用品—清潔用品, 用品—生活食器, 其他(請寫在備註欄中)\n","備註":"裸賣雜貨店，全自備容器，有賣貝果\n","粉專/網站":"https://m.facebook.com/新村小商號-141026013155950/\n"}},{"type":"Feature","geometry":{"type":"Point","coordinates":[121.5399106,25.0001533,0]},"properties":{"name":"一番堂烘培坊","description":"地址: <br>電話: <br>類型: 其他(請寫在備註欄中)<br><br>備註: 麵包,自備包裝老闆會很細心幫忙包裝<br><br>粉專/網站: ","地址":null,"電話":null,"類型":"其他(請寫在備註欄中)\n","備註":"麵包,自備包裝老闆會很細心幫忙包裝\n","粉專/網站":null}},{"type":"Feature","geometry":{"type":"Point","coordinates":[121.5253992,25.0011883,0]},"properties":{"name":"歐米亞小舖秀朗店","description":"地址: <br>電話: <br>類型: 用品—清潔用品, 用品—生活食器, 其他(請寫在備註欄中)<br>備註: 在「洗劑填充區」可自備容器裝清潔用品，含洗衣精，洗碗精，洗髮精，沐浴乳等，皆為台灣製造，產品成分等細節可洽0915123469王小姐。<br><br>粉專/網站: ","地址":null,"電話":null,"類型":"用品—清潔用品, 用品—生活食器, 其他(請寫在備註欄中)","備註":"在「洗劑填充區」可自備容器裝清潔用品，含洗衣精，洗碗精，洗髮精，沐浴乳等，皆為台灣製造，產品成分等細節可洽0915123469王小姐。\n","粉專/網站":null}},{"type":"Feature","geometry":{"type":"Point","coordinates":[120.13183,23.016025,0]},"properties":{"name":"四草舟屋民宿","description":"地址: <br>電話: <br>類型: 其他(請寫在備註欄中)<br><br>備註: 住宿自備盥洗用品減少一次性垃圾，可折價優惠！<br><br>粉專/網站: https://www.facebook.com/SicaoHouse/","地址":null,"電話":null,"類型":"其他(請寫在備註欄中)\n","備註":"住宿自備盥洗用品減少一次性垃圾，可折價優惠！\n","粉專/網站":"https://www.facebook.com/SicaoHouse/"}},{"type":"Feature","geometry":{"type":"Point","coordinates":[121.5526963,25.0480898,0]},"properties":{"name":"龜記茗品","description":"地址: <br>電話: <br>類型: <br>備註: 茶飲<br><br>粉專/網站: ","地址":null,"電話":null,"類型":null,"備註":"茶飲\n","粉專/網站":null}},{"type":"Feature","geometry":{"type":"Point","coordinates":[120.6676906,24.179726,0]},"properties":{"name":"鏟屎官雞蛋糕","description":"地址: <br>電話: <br>類型: 熟食<br>備註: 脆皮雞蛋糕(有餡/無餡)，可用自備容器<br><br>粉專/網站: https://www.facebook.com/CSGeggcake/<br>","地址":null,"電話":null,"類型":"熟食","備註":"脆皮雞蛋糕(有餡/無餡)，可用自備容器\n","粉專/網站":"https://www.facebook.com/CSGeggcake/\n"}},{"type":"Feature","geometry":{"type":"Point","coordinates":[121.531018,25.054738,0]},"properties":{"name":"樂芙尼手工蛋糕","description":"地址: <br>電話: <br>類型: <br>備註: <br>粉專/網站: ","地址":null,"電話":null,"類型":null,"備註":null,"粉專/網站":null}}]}